{
    "api": "mmt - Neolithicum",
    "logoUrl" : "images/mmt-logo.png",
    "title": "Megalieten in de Sarthe",
    "code": "mmtMegalietSarthe",
    "updated": "2019-01-08T19:58:42.949Z",
    "curiosity": [
      {
        "key": "1",
        "name": "Allée couverte du Colombier",
        "image": "Allee couverte du Colombier.jpg",
        "comment": "",
        "type": "allée couverte",
        "period": "Neolithicum",
        "coordinates": "47° 42′ 25″ nord, 0° 14′ 49″ est",
        "longitude": "0.24694444444444444",
        "latitude": "47.7069444",
        "country": "Frankrijk",
        "region": "Pays de la Loire",
        "departement": "Sarthe",
        "city": "Aubigné-Racan"
      },
      {
        "key": "2",
        "name": "Dolmen de la Pierre",
        "image": "Dolmen de la Pierre.jpg",
        "comment": "",
        "type": "dolmen",
        "period": "Neolithicum",
        "coordinates": "47° 42′ 40″ nord, 0° 14′ 57″ est",
        "longitude": "0.24916666666666668",
        "latitude": "47.7111111",
        "country": "Frankrijk",
        "region": "Pays de la Loire",
        "departement": "Sarthe",
        "city": "Aubigné-Racan"
      },
      {
        "key": "3",
        "name": "Menhir du château de Bossé",
        "image": "Menhir du chateau de Bosse.jpg",
        "comment": "",
        "type": "menhir",
        "period": "Neolithicum",
        "coordinates": "",
        "longitude": "",
        "latitude": "",
        "country": "Frankrijk",
        "region": "Pays de la Loire",
        "departement": "Sarthe",
        "city": "Aubigné-Racan"
      },
      {
        "key": "4",
        "name": "Nécropole néolithique du théâtre antique de Cherré",
        "image": "Necropole neolithique du theatre antique de Cherre.png",
        "comment": "",
        "type": "dolmen",
        "period": "Neolithicum",
        "coordinates": "47° 39′ 48″ nord, 0° 14′ 09″ est ",
        "longitude": "0.23583333333333334",
        "latitude": "47.6633333",
        "country": "Frankrijk",
        "region": "Pays de la Loire",
        "departement": "Sarthe",
        "city": "Aubigné-Racan"
      },
      {
        "key": "5",
        "name": "Menhir du Perray",
        "image": "Menhir du Perray.png",
        "comment": "",
        "type": "dolmen",
        "period": "Neolithicum",
        "coordinates": "47° 46′ 11″ N, 0° 23′ 12″ E",
        "longitude": "0.3866666666666667",
        "latitude": "47.7530556",
        "country": "Frankrijk",
        "region": "Pays de la Loire",
        "departement": "Sarthe",
        "city": "Beaumont-Pied-de-Bœuf"
      },
      {
        "key": "6",
        "name": "Menhir de Clossay",
        "image": "Menhir de Clossay.jpg",
        "comment": "",
        "type": "menhir",
        "period": "Neolithicum",
        "coordinates": "",
        "longitude": "",
        "latitude": "",
        "country": "Frankrijk",
        "region": "Pays de la Loire",
        "departement": "Sarthe",
        "city": "Bonnétable"
      },
      {
        "key": "7",
        "name": "Menhir du Caillou",
        "image": "Menhir du Caillou.jpg",
        "comment": "",
        "type": "menhir",
        "period": "Neolithicum",
        "coordinates": "47° 44′ 39″ nord, 0° 29′ 09″ est",
        "longitude": "0.48583333333333334",
        "latitude": "47.7441667",
        "country": "Frankrijk",
        "region": "Pays de la Loire",
        "departement": "Sarthe",
        "city": "Chahaignes "
      },
      {
        "key": "8",
        "name": "Menhir de Gobianne",
        "image": "Menhir de Gobianne.jpg",
        "comment": "",
        "type": "menhir",
        "period": "Neolithicum",
        "coordinates": "47° 44′ 34″ N, 0° 29′ 23″ E",
        "longitude": "0.4897222222222222",
        "latitude": "47.7427778",
        "country": "Frankrijk",
        "region": "Pays de la Loire",
        "departement": "Sarthe",
        "city": "Chahaignes "
      },
      {
        "key": "9",
        "name": "Menhir de Haute-Crane",
        "image": "Menhir de Haute-Crane.jpg",
        "comment": "",
        "type": "menhir",
        "period": "Neolithicum",
        "coordinates": "47° 39′ 33″ nord, 0° 31′ 21″ est",
        "longitude": "0.5225000000000001",
        "latitude": "47.6591667",
        "country": "Frankrijk",
        "region": "Pays de la Loire",
        "departement": "Sarthe",
        "city": "Dissay-sous-Courcillon"
      },
      {
        "key": "10",
        "name": "Menhir de la Pierre Levée",
        "image": "Menhir de la Pierre Levee.jpg",
        "comment": "",
        "type": "menhir",
        "period": "Neolithicum",
        "coordinates": "47° 40′ 30″ nord, 0° 29′ 04″ est",
        "longitude": "0.48444444444444446",
        "latitude": "47.675",
        "country": "Frankrijk",
        "region": "Pays de la Loire",
        "departement": "Sarthe",
        "city": "Dissay-sous-Courcillon"
      },
      {
        "key": "11",
        "name": "Menhir de La Serpinerie",
        "image": "Menhir de La Serpinerie.jpg",
        "comment": "",
        "type": "menhir",
        "period": "Neolithicum",
        "coordinates": "47° 41′ 06″ nord, 0° 29′ 22″ est",
        "longitude": "0.48944444444444446",
        "latitude": "47.685",
        "country": "Frankrijk",
        "region": "Pays de la Loire",
        "departement": "Sarthe",
        "city": "Dissay-sous-Courcillon"
      },
      {
        "key": "12",
        "name": "Menhir de Lorrière",
        "image": "Menhir de Lorriere.jpg",
        "comment": "",
        "type": "menhir",
        "period": "Neolithicum",
        "coordinates": "47° 35′ 11″ nord, 0° 08′ 24″ est",
        "longitude": "0.13999999999999999",
        "latitude": "47.5863889",
        "country": "Frankrijk",
        "region": "Pays de la Loire",
        "departement": "Sarthe",
        "city": "Dissé-sous-le-Lude"
      },
      {
        "key": "13",
        "name": "Pierre couverte",
        "image": "Menhir du Caillou.jpg",
        "comment": "",
        "type": "dolmen",
        "period": "Neolithicum",
        "coordinates": "48° 03′ 14″ nord, 0° 31′ 14″ est",
        "longitude": "0.5205555555555557",
        "latitude": "48.0538889",
        "country": "Frankrijk",
        "region": "Pays de la Loire",
        "departement": "Sarthe",
        "city": "Duneau"
      },
      {
        "key": "14",
        "name": "Pierre Fiche",
        "image": "Pierre Fiche.jpg",
        "comment": "",
        "type": "Mégalithe",
        "period": "Neolithicum",
        "coordinates": "48° 03′ 36″ N, 0° 31′ 25″ E",
        "longitude": "0.5236111111111111",
        "latitude": "48.06",
        "country": "Frankrijk",
        "region": "Pays de la Loire",
        "departement": "Sarthe",
        "city": "Duneau"
      },
      {
        "key": "15",
        "name": "Les pierres tournantes",
        "image": "Les pierres tournantes.jpg",
        "comment": "",
        "type": "menhir",
        "period": "Neolithicum",
        "coordinates": "47° 50′ 34″ nord, 0° 18′ 30″ est",
        "longitude": "0.30833333333333335",
        "latitude": "47.8427778",
        "country": "Frankrijk",
        "region": "Pays de la Loire",
        "departement": "Sarthe",
        "city": "Écommoy"
      },
      {
        "key": "16",
        "name": "Dolmen de Cuissé",
        "image": "Dolmen de Cuisse.jpg",
        "comment": "",
        "type": "dolmen",
        "period": "Neolithicum",
        "coordinates": "",
        "longitude": "0.24916666666666668",
        "latitude": "47.7111111",
        "country": "Frankrijk",
        "region": "Pays de la Loire",
        "departement": "Sarthe",
        "city": "Le Lude"
      },
      {
        "key": "17",
        "name": "Menhir (ancien dolmen) de la Pierre",
        "image": "Menhir -ancien dolmen- de la Pierre.jpg",
        "comment": "",
        "type": "menhir",
        "period": "Neolithicum",
        "coordinates": "47° 48′ 24″ nord, 0° 02′ 18″ est",
        "longitude": "0.03833333333333333",
        "latitude": "47.8066667",
        "country": "Frankrijk",
        "region": "Pays de la Loire",
        "departement": "Sarthe",
        "city": "La Fontaine-Saint-Martin"
      },
      {
        "key": "18",
        "name": "Pierre Saint-Julien",
        "image": "Pierre Saint-Julien.jpg",
        "comment": "",
        "type": "menhir",
        "period": "Neolithicum",
        "coordinates": "48° 00′ 35″ N, 0° 11′ 53″ E",
        "longitude": "0.19805555555555554",
        "latitude": "48.0097222",
        "country": "Frankrijk",
        "region": "Pays de la Loire",
        "departement": "Sarthe",
        "city": "Le Mans Place Saint-Michel"
      },
      {
        "key": "19",
        "name": "Dolmen de Lhomme",
        "image": "Dolmen de Lhomme.jpg",
        "comment": "",
        "type": "dolmen",
        "period": "Neolithicum",
        "coordinates": "47° 46′ 07″ N, 0° 35′ 11″ E",
        "longitude": "0.586388888888889",
        "latitude": "47.7686111",
        "country": "Frankrijk",
        "region": "Pays de la Loire",
        "departement": "Sarthe",
        "city": "Lhomme Maupertuis"
      },
      {
        "key": "20",
        "name": "Menhir de la Brunerie",
        "image": "Menhir de la Brunerie.jpg",
        "comment": "",
        "type": "menhir",
        "period": "Neolithicum",
        "coordinates": "47° 46′ 24″ nord, 0° 07′ 37″ est",
        "longitude": "0.12694444444444444",
        "latitude": "47.7733333",
        "country": "Frankrijk",
        "region": "Pays de la Loire",
        "departement": "Sarthe",
        "city": "Mansigné "
      },
      {
        "key": "21",
        "name": "Menhir de Courtevrais",
        "image": "Menhir de Courtevrais.jpg",
        "comment": "",
        "type": "menhir",
        "period": "Neolithicum",
        "coordinates": "48° 13′ 16″ nord, 0° 28′ 52″ est",
        "longitude": "0.4811111111111111",
        "latitude": "48.2211111",
        "country": "Frankrijk",
        "region": "Pays de la Loire",
        "departement": "Sarthe",
        "city": "Nogent-le-Bernard"
      },
      {
        "key": "22",
        "name": "Menhir non levé",
        "image": "Menhir non leve.jpg",
        "comment": "Menhir non levé, ou tombé, à 50 mètres au nord-est des menhirs de la Mère et de la Fille.",
        "type": "menhir",
        "period": "Neolithicum",
        "coordinates": "47° 47′ 01″ nord, 0° 05′ 27″ est",
        "longitude": "0.24916666666666668",
        "latitude": "47.7111111",
        "country": "Frankrijk",
        "region": "Pays de la Loire",
        "departement": "Sarthe",
        "city": "Oizé "
      },
      {
        "key": "23",
        "name": "La Pierre Bergère",
        "image": "La Pierre Bergere.jpg",
        "comment": "",
        "type": "menhir",
        "period": "Neolithicum",
        "coordinates": "",
        "longitude": "",
        "latitude": "",
        "country": "Frankrijk",
        "region": "Pays de la Loire",
        "departement": "Sarthe",
        "city": "Parigné-l'Évêque"
      },
      {
        "key": "24",
        "name": "Pierre couverte",
        "image": "Pierre couverte.jpg",
        "comment": "",
        "type": "dolmen",
        "period": "Neolithicum",
        "coordinates": "47° 51′ 30″ N, 0° 05′ 33″ E",
        "longitude": "",
        "latitude": "",
        "country": "Frankrijk",
        "region": "Pays de la Loire",
        "departement": "Sarthe",
        "city": "Parigné-le-Pôlin"
      },
      {
        "key": "25",
        "name": "Dolmen d'Amenon",
        "image": "Dolmen d-Amenon.jpg",
        "comment": "",
        "type": "menhir",
        "period": "Neolithicum",
        "coordinates": "47° 38′ 12″ N, 0° 15′ 12″ E",
        "longitude": "",
        "latitude": "",
        "country": "Frankrijk",
        "region": "Pays de la Loire",
        "departement": "Sarthe",
        "city": "Saint-Germain-d'Arcé<br>La Pièce de la Ronce"
      },
      {
        "key": "26",
        "name": "Menhir dit 'Menhir du Gué'",
        "image": "Menhir dit Menhir du Gue.jpg",
        "comment": "Petit menhir déplacé et christianisé (Croix gravée dans la partie supérieure).",
        "type": "menhir",
        "period": "Neolithicum",
        "coordinates": "47° 37′ 30″ nord, 0° 17′ 39″ est",
        "longitude": "",
        "latitude": "",
        "country": "Frankrijk",
        "region": "Pays de la Loire",
        "departement": "Sarthe",
        "city": "Saint-Germain-d'Arcé "
      },
      {
        "key": "27",
        "name": "Dolmen d'Amenon",
        "image": "Dolmen d-Amenon.jpg",
        "comment": "",
        "type": "dolmen",
        "period": "Neolithicum",
        "coordinates": "47° 38′ 12″ N, 0° 15′ 12″ E",
        "longitude": "",
        "latitude": "",
        "country": "Frankrijk",
        "region": "Pays de la Loire",
        "departement": "Sarthe",
        "city": "Saint-Germain-d'Arcé<br>La Pièce de la Ronce"
      },
      {
        "key": "28",
        "name": "Menhirs de la Mère et de la Fille",
        "image": "Menhirs de la Mere et de la Fille.jpg",
        "comment": "",
        "type": "menhir",
        "period": "Neolithicum",
        "coordinates": "47° 47′ 00″ nord, 0° 05′ 24″ est",
        "longitude": "",
        "latitude": "",
        "country": "Frankrijk",
        "region": "Pays de la Loire",
        "departement": "Sarthe",
        "city": "Saint-Jean-de-la-Motte"
      },
      {
        "key": "29",
        "name": "Menhir",
        "image": "Menhir.jpg",
        "comment": "Pierre levée à environ 50 mètres à l'ouest des menhirs de la Mère et de la Fille",
        "type": "menhir",
        "period": "Neolithicum",
        "coordinates": "47° 47′ 00″ nord, 0° 05′ 21″ est",
        "longitude": "",
        "latitude": "",
        "country": "Frankrijk",
        "region": "Pays de la Loire",
        "departement": "Sarthe",
        "city": "Saint-Jean-de-la-Motte"
      },
      {
        "key": "30",
        "name": "Palet de Gargantua",
        "image": "Palet de Gargantua.jpg",
        "comment": "",
        "type": "dolmen",
        "period": "Neolithicum",
        "coordinates": "47° 44′ 50″ nord, 0° 03′ 42″ est",
        "longitude": "",
        "latitude": "",
        "country": "Frankrijk",
        "region": "Pays de la Loire",
        "departement": "Sarthe",
        "city": "Saint-Jean-de-la-Motte"
      },
      {
        "key": "31",
        "name": "Pierre Potelée",
        "image": "Pierre Potelee.jpg",
        "comment": "",
        "type": "menhir",
        "period": "Neolithicum",
        "coordinates": "47° 46′ 51″ nord, 0° 05′ 39″ est",
        "longitude": "",
        "latitude": "",
        "country": "Frankrijk",
        "region": "Pays de la Loire",
        "departement": "Sarthe",
        "city": "Saint-Jean-de-la-Motte"
      },
      {
        "key": "32",
        "name": "Dolmen d'Hunault",
        "image": "Dolmen d-Hunault.jpg",
        "comment": "",
        "type": "dolmen",
        "period": "Neolithicum",
        "coordinates": "47° 46′ 39″ nord, 0° 05′ 44″ est",
        "longitude": "",
        "latitude": "",
        "country": "Frankrijk",
        "region": "Pays de la Loire",
        "departement": "Sarthe",
        "city": "Saint-Jean-de-la-Motte"
      },
      {
        "key": "33",
        "name": "Dolmen de Tresson",
        "image": "Dolmen de Tresson.jpg",
        "comment": "",
        "type": "dolmen",
        "period": "Neolithicum",
        "coordinates": "",
        "longitude": "",
        "latitude": "",
        "country": "Frankrijk",
        "region": "Pays de la Loire",
        "departement": "Sarthe",
        "city": "Saint-Mars-de-Locquenay"
      },
      {
        "key": "34",
        "name": "Menhir de Sourches",
        "image": "Menhir de Sourches.jpg",
        "comment": "",
        "type": "menhir",
        "period": "Neolithicum",
        "coordinates": "",
        "longitude": "",
        "latitude": "",
        "country": "Frankrijk",
        "region": "Pays de la Loire",
        "departement": "Sarthe",
        "city": "Saint-Symphorien"
      },
      {
        "key": "35",
        "name": "Menhirs de Blandan",
        "image": "Menhirs de Blandan.jpg",
        "comment": "",
        "type": "menhir",
        "period": "Neolithicum",
        "coordinates": "",
        "longitude": "",
        "latitude": "",
        "country": "Frankrijk",
        "region": "Pays de la Loire",
        "departement": "Sarthe",
        "city": "Savigné-l'Évêque "
      },
      {
        "key": "36",
        "name": "Menhir du Loup Pendu",
        "image": "Menhir du Loup Pendu.jpg",
        "comment": "",
        "type": "menhir",
        "period": "Neolithicum",
        "coordinates": "47° 32′ 10″ nord, 0° 06′ 50″ est",
        "longitude": "",
        "latitude": "",
        "country": "Frankrijk",
        "region": "Pays de la Loire",
        "departement": "Sarthe",
        "city": "Savigné-sous-le-Lude"
      },
      {
        "key": "37",
        "name": "Dolmen de Sougé-le-Ganelon",
        "image": "Dolmen de Souge-le-Ganelon.jpg",
        "comment": "En ruines, ne reste que deux pierres placées contre l'église.",
        "type": "dolmen",
        "period": "Neolithicum",
        "coordinates": "48° 19′ 05″ nord, 0° 01′ 47″ ouest",
        "longitude": "",
        "latitude": "",
        "country": "Frankrijk",
        "region": "Pays de la Loire",
        "departement": "Sarthe",
        "city": "Sougé-le-Ganelon"
      },
      {
        "key": "38",
        "name": "Dolmen de Torcé-en-Vallée",
        "image": "Dolmen de Torce-en-Vallee.jpg",
        "comment": "",
        "type": "dolmen",
        "period": "Neolithicum",
        "coordinates": "48° 08′ 00″ nord, 0° 23′ 27″ est",
        "longitude": "",
        "latitude": "",
        "country": "Frankrijk",
        "region": "Pays de la Loire",
        "departement": "Sarthe",
        "city": "Torcé-en-Vallée"
      },
      {
        "key": "39",
        "name": "Dolmen des Grandes Bruyères",
        "image": "Dolmen des Grandes Bruyeres.jpg",
        "comment": "",
        "type": "dolmen",
        "period": "Neolithicum",
        "coordinates": "",
        "longitude": "",
        "latitude": "",
        "country": "Frankrijk",
        "region": "Pays de la Loire",
        "departement": "Sarthe",
        "city": "Tuffé"
      },
      {
        "key": "40",
        "name": "Dolmen de la Pierre couverte",
        "image": "Dolmen de la Pierre couverte.jpg",
        "comment": "",
        "type": ",dolmen",
        "period": "Neolithicum",
        "coordinates": "47° 41′ 46″ N, 0° 19′ 35″",
        "longitude": "",
        "latitude": "",
        "country": "Frankrijk",
        "region": "Pays de la Loire",
        "departement": "Sarthe",
        "city": "Vaas"
      },
      {
        "key": "41",
        "name": "Menhirs de Corbuon",
        "image": "Menhirs de Corbuon.jpg",
        "comment": "",
        "type": "menhir",
        "period": "Neolithicum",
        "coordinates": "",
        "longitude": "",
        "latitude": "",
        "country": "Frankrijk",
        "region": "Pays de la Loire",
        "departement": "Sarthe",
        "city": "Villaines-sous-Lucé"
      },
      {
        "key": "42",
        "name": "Dolmen des Roches",
        "image": "Dolmen des Roches.jpg",
        "comment": "",
        "type": "dolmen",
        "period": "Neolithicum",
        "coordinates": "48° 05′ 24″ nord, 0° 33′ 18″ est",
        "longitude": "",
        "latitude": "",
        "country": "Frankrijk",
        "region": "Pays de la Loire",
        "departement": "Sarthe",
        "city": "Vouvray-sur-Huisne"
      }
    ]
  }