{
    "api": "mmt - Neolithicum",
    "logoUrl" : "images/vacineLogo.jpg",
    "title": "Vaccinatiecentra provincie Antwerpen",
    "code": "VaccineAntwerp",
    "updated": "2021-05-15T19:58:42.949Z",
    "vaccinatiecentra": [
      {
        "key": "1",
        "name": "Park Spoor Oost",
        "image": "vcAntwerp.jpg",
        "addres": "Noordersingerl 40",
        "city": "Antwerpen",
        "postalcode" :"2000",
        "province": "Antwerpen",
        "headcity": "Antwerpen, Borsbeek, Wommelgem, Schoten, Stabroek",
        "longitude": "4.445766205051715",
        "latitude": "51.22369403019676"
      },
      {
        "key": "2",
        "name": "GC Klein Boom",
        "image": "vcPutte.jpg",
        "addres": "Mechelbaan 604",
        "city": "Putte",
        "postalcode" :"2580",
        "province": "Antwerpen",
        "headcity": "Bonheiden, Putte, Heist-op-den-Berg",
        "longitude": "4.615312979010294",
        "latitude": "51.05004331355226"
      },
      {
        "key": "3",
        "name": "Site Weelde Depot",
        "image": "vcRavels.jpg",
        "addres": "Geeneinde 54",
        "city": "Ravels",
        "postalcode" :"2380",
        "province": "Antwerpen",
        "headcity": "Ravels, Hoogstraten, Rijkevorsel, Arendonk, Baarle-Hertog, Merksplas",
        "longitude": "4.959663609174872",
        "latitude": "51.39828594853819"
      },
      {
        "key": "4",
        "name": "Site Parking Signify Turnhout",
        "image": "vcTurnhout.jpg",
        "addres": "Zierenbosstraat",
        "city": "Turnhout",
        "province": "Antwerpen",
        "headcity": "Turnhout, Oud- Turnhout, Vosselaar, Beerse",
        "longitude": "4.916134641703831",
        "latitude": "51.30011892005592"
      },
      {
        "key": "5",
        "name": "De Zwaan",
        "image": "vcMol.jpg",
        "addres": "Markt 28",
        "city": "Mol",
        "postalcode": "2400",
        "province": "Antwerpen",
        "headcity": "Mol, Balen, Dessel, Retie",
        "longitude": "5.11480095519102",
        "latitude": "51.1837145305897"
      },
      {
        "key": "6",
        "name": "Sport- en Evenementenhal Binder",
        "image": "vcPuurs.jpg",
        "addres": "Kloosterhof 1 / Forum 4",
        "city": "Puurs",
        "postalcode": "2870",
        "province": "Antwerpen",
        "headcity": "Puurs-Sint-Amands, Bornem",
        "longitude": "4.274557228747619",
        "latitude": "51.0748352014565"
      },
      {
        "key": "7",
        "name": "AED",
        "image": "vcWillebroek.jpg",
        "addres": "Bedrijvenpark de Veert 12",
        "city": "Willebroek",
        "postalcode": "2830",
        "province": "Antwerpen",
        "headcity": "Willebroek",
        "longitude": "4.353590941691794",
        "latitude": "51.06744923661509"
      },
      {
        "key": "8",
        "name": "Militair kwartier Den Troon",
        "image": "vcGrobbendonk.jpg",
        "addres": "Bevrijdingsstraat 31",
        "city": "Grobbendonk",
        "postalcode": "2280",
        "province": "Antwerpen",
        "headcity": "Grobbendonk, Herentals, Vorselaar, Herenthout",
        "longitude": "4.743362999369039",
        "latitude": "51.183828106141135"
      },
      {
        "key": "9",
        "name": "Sportcentrum Tielenhei",
        "image": "vcKasterlee.jpg",
        "addres": "Prijstraat 68",
        "city": "Kasterlee",
        "postalcode": "2460",
        "province": "Antwerpen",
        "headcity": "Kasterlee, Lille, Olen",
        "longitude": "4.8961564551946894",
        "latitude": "51.25480352683003"
      },
      {
        "key": "10",
        "name": "CC De Mol",
        "image": "vcLier.jpg",
        "addres": "Aarschotsesteenweg 3",
        "city": "Lier",
        "postalcode": "2500",
        "province": "Antwerpen",
        "headcity": "Berlaar, Duffel, Lier, Nijlen, Ranst",
        "longitude": "4.575741755187965",
        "latitude": "51.12524531585236"
      },     
       {
        "key": "11",
        "name": "AED Studios",
        "image": "vcLint.jpg",
        "addres": "Fabriekstraat 38",
        "city": "Lint",
        "postalcode": "2547",
        "province": "Antwerpen",
        "headcity": "Boechout, Edegem, Hove, Kontich, Lint, Mortsel",
        "longitude": "4.4750815128598305",
        "latitude": "51.137730738775176"
      },
      {
        "key": "12",
        "name": "Wetenschapspark",
        "image": "vcNiel.jpg",
        "addres": "Galileilaan 3",
        "city": "Niel",
        "postalcode": "2845",
        "province": "Antwerpen",
        "headcity": "Hemiksem, Aartselaar, Niel, Schelle, Boom, Rumst",
        "longitude": "4.356295939844684",
        "latitude": "51.108075432445006"
      },
      {
        "key": "13",
        "name": "Provinciaal Vormingscentrum Malle",
        "image": "vcMalle.jpg",
        "addres": "Smekenstraat 61",
        "city": "Malle",
        "postalcode": "2390",
        "province": "Antwerpen",
        "headcity": "Brecht, Malle, Schilde, Zandhoven, Zoersel, Wijnegem",
        "longitude": "4.748442291978441",
        "latitude": "51.305179867631864"
      },
      {
        "key": "14",
        "name": "De Waai",
        "image": "vcGeel.jpg",
        "addres": "Werft 28",
        "city": "Geel",
        "postalcode": "2440",
        "province": "Antwerpen",
        "headcity": "Geel, Meerhout, Laakdal",
        "longitude": "4.986483910127051",
        "latitude": "51.161769817918334"
      },
      {
        "key": "15",
        "name": "De Zoerla",
        "image": "vcWesterlo.jpg",
        "addres": "Gevaertlaan 1",
        "city": "Westerlo",
        "postalcode": "2260",
        "province": "Antwerpen",
        "headcity": "Westerlo, Herselt, Hulshout",
        "longitude": "4.870945457035249",
        "latitude": "51.0876575488715"
      },
      {
        "key": "16",
        "name": "Nekkerhal",
        "image": "vcMechelen.jpg",
        "addres": "Plattebeekstraat 1",
        "city": "Mechelen",
        "postalcode": "2800",
        "province": "Antwerpen",
        "headcity": "Mechelen, Sint-Katelijne-Waver",
        "longitude": "4.499878997511723",
        "latitude": "51.02778498814274"
      },
      {
        "key": "17",
        "name": "Militair Domain, Kwartier West",
        "image": "vcBrasschaat.jpg",
        "addres": "Kapellei 65",
        "city": "Brasschaat",
        "postalcode": "2930",
        "province": "Antwerpen",
        "headcity": "Essen, Kalmthout, Brasschaat, Kapellen, Wuustwezel",
        "longitude": "4.517855697527166",
        "latitude": "51.32588597516392"
      }            
    ]
  }